{"data":{
    "origin_lat": 132232.4134, 
    "origin_long":13223213.3434,
    "cityArr": [
        {
        "id": 15881,
        "name": "Royal Exchange",
        "street": 123 ,
        "city":"manchester",
        "state": "Greater Manchester", 
        "distance": 123213.343,
        "latitude":123424324,
        "longitude": 23432432,
        "country": "GB",
        "comment": "Several gender-neutral toilets :)",
        "changing_table":true,
        "unisex":false,
        "accessible":true,
        "directions": "input instruction",
        "bearing":"12.323123"
        },
        {
            "id": 15881,
            "name": "Somerset House",
            "street": "Strand WC2R 1LA",
            "city": "London",
            "state": "England",
            "accessible": false,
            "unisex": true,
            "directions": "Ground floor in the middle section of the building, opposite the main ticket desk, 25 metres down the corridor, on the right, opposite the restaurant.",
            "comment": "Several gender-neutral toilets :)",
            "latitude": 51.51073239999999,
            "longitude": -0.1169377,
            "country": "United Kingdom",
            "changing_table": false,
            "distance": 0.0778179282402045,
            "bearing": "53.076928725084"
          },
          {
            "id": 54296,
            "name": "Somerset House",
            "street": "Strand",
            "city": "London",
            "state": "London",
            "accessible": true,
            "unisex": true,
            "directions": "A few toilets are located throughout the building, e.g. in the New Wing on Waterloo Bridge.",
            "comment": "The ground floor of the building is open to anyone, from early morning to late evening (e.g. 10pm), every day of the week.",
            "latitude": 51.5112079,
            "longitude": -0.1193447,
            "country": "GB",
            "changing_table": false,
            "distance": 0.10728893690806852,
            "bearing": "316.990291435728"
          },
          {
            "id": 43967,
            "name": "Somerset House ",
            "street": "The strand ",
            "city": "London",
            "state": "England ",
            "accessible": true,
            "unisex": true,
            "directions": "Going into Seaman’s hall from the main courtyard turn right down the hallway ",
            "comment": "This location is open to the public",
            "latitude": 51.5112079,
            "longitude": -0.1193447,
            "country": "GB",
            "changing_table": false,
            "edit_id": 43967,
            "distance": 0.10728893690806852,
            "bearing": "316.990291435728"
          },
          {
            "id": 16496,
            "name": "Strand Campus, King's College London",
            "street": "Strand",
            "city": "London",
            "state": "London",
            "accessible": false,
            "unisex": true,
            "directions": "1st floor of King's Building (same building as the reception. Go past reception and up the staircase on the left.)",
            "comment": "Open 8am-8pm weekdays, but varies at weekends. Plenty of tourists and prospective students come wandering around, so don't feel awkward. ",
            "latitude": 51.5111786,
            "longitude": -0.1198011,
            "country": "GB",
            "changing_table": false,
            "distance": 0.11678591236676983,
            "bearing": "307.545579280744"
          },
          {
            "id": 16500,
            "name": "Strand campus, King's College London",
            "street": "Strand ",
            "city": "London",
            "state": "London",
            "accessible": false,
            "unisex": false,
            "directions": "After entering King's through reception or through the entrance hall, go to the southernmost building (music department). There are two single stall unisex bathrooms on the grey stone staircase.",
            "comment": "Open 8am-8pm weekdays, weekend opening varies. There are always tourists and prospective students wandering around, so don't feel awkward.",
            "latitude": 51.5111786,
            "longitude": -0.1198011,
            "country": "GB",
            "changing_table": false,
            "distance": 0.11678591236676983,
            "bearing": "307.545579280744"
          },
          {
            "id": 28763,
            "name": "Leon",
            "street": "73-76 Strand",
            "city": "London",
            "state": "WC2R0DE London",
            "accessible": true,
            "unisex": true,
            "directions": "Only one on ground level",
            "comment": "Wide enough door for a wheelchair but you might need help opening it",
            "latitude": 51.51056200000001,
            "longitude": -0.1213414,
            "country": "GB",
            "changing_table": false,
            "distance": 0.1477965989595717,
            "bearing": "282.10655759832"
          },
          {
            "id": 28762,
            "name": "Leon",
            "street": "73-76 Strand",
            "city": "London",
            "state": "WC2R0DE London",
            "accessible": true,
            "unisex": true,
            "directions": "Only one on ground level",
            "comment": "Wide enough door for a wheelchair but you might need help opening it",
            "latitude": 51.51056200000001,
            "longitude": -0.1213414,
            "country": "GB",
            "changing_table": false,
            "distance": 0.1477965989595717,
            "bearing": "282.10655759832"
          },
          {
            "id": 27554,
            "name": "Macadam Building, Strand Campus, Kings College London",
            "street": "Surrey Street, WC2R 2NS",
            "city": "London",
            "state": "London",
            "accessible": true,
            "unisex": true,
            "directions": "Go through the main (glass) doors to the KCLSU building, immediately on the right there are 2 gender neutral single stall bathrooms and 1 gender neutral wheelchair accesible toilet",
            "comment": "Normally just walk in and there should be no problems. On busy evenings (Thursday and Fridays after 7ish) there may be someone checking college ID cards inside, I think they will let you use the bathroom if you make it clear you aren't trying to get to the SU Bar.",
            "latitude": 51.5113297,
            "longitude": -0.1151141,
            "country": "GB",
            "changing_table": false,
            "distance": 0.16321638815245615,
            "bearing": "63.809425695081"
          },
          {
            "id": 28765,
            "name": "LEON",
            "street": "73-76 Strand",
            "city": "London",
            "state": "WC2R0DE",
            "accessible": true,
            "unisex": true,
            "directions": "Ground floor",
            "comment": "Wide enough door for wheelchair, might need assistance with opening the door ",
            "latitude": 51.5099038,
            "longitude": -0.1222456,
            "country": "GB",
            "changing_table": false,
            "distance": 0.17863437270510366,
            "bearing": "270.53520119211"
          },
          {
            "id": 41351,
            "name": "Underbelly Area ",
            "street": "South Bank",
            "city": "London",
            "state": "London",
            "accessible": false,
            "unisex": false,
            "directions": "Inside the Udderbelly and bar area in South Bank. Free to enter. ",
            "comment": "",
            "latitude": 51.5071591,
            "longitude": -0.1154858,
            "country": "GB",
            "changing_table": false,
            "distance": 0.21797915263354553,
            "bearing": "136.075227961373"
          },
          {
            "id": 21107,
            "name": "Starbucks",
            "street": "Villiers Street",
            "city": "London",
            "state": "London",
            "accessible": true,
            "unisex": true,
            "directions": "Right at the end, past the barista bar. ",
            "comment": "Door Code! Try C2468Z (Dec 2015)",
            "latitude": 51.5081532,
            "longitude": -0.1240551,
            "country": "GB",
            "changing_table": false,
            "distance": 0.2823933365697658,
            "bearing": "253.983056269445"
          },
          {
            "id": 4180,
            "name": "The Hayward Gallery",
            "street": " Southbank Centre, Belvedere Rd SE1 8XX",
            "city": "London",
            "state": "ENG",
            "accessible": true,
            "unisex": true,
            "directions": "It's part of the South Bank Centre, by the Thames.\r\rThe loos are on the ground floor slightly left as you enter the main doors. Only available during gallery hours - take a leaflet and go for a stroll afterwards, it's lovely by the river.",
            "comment": "Mon \t12‰ÛÒ6pm\r\rTue-Wed, Sat-Sun \t10am‰ÛÒ6pm\r\rThu-Fri \t10am‰ÛÒ8pm\r\r",
            "latitude": 51.5058361,
            "longitude": -0.1167889,
            "country": "UK",
            "changing_table": false,
            "distance": 0.28395466624565646,
            "bearing": "162.076813302083"
          },
          {
            "id": 47261,
            "name": "Costa Coffee",
            "street": "13 New Row",
            "city": "London",
            "state": "England",
            "accessible": true,
            "unisex": false,
            "directions": "At the back of the coffee shop (there is a guiding sign)",
            "comment": "",
            "latitude": 51.5110632,
            "longitude": -0.1256634,
            "country": "GB",
            "changing_table": false,
            "distance": 0.33594385097357393,
            "bearing": "278.992677077928"
          },
          {
            "id": 33973,
            "name": "Marks and Spencer Covent Garden",
            "street": "Long Acre",
            "city": "London",
            "state": "London",
            "accessible": true,
            "unisex": true,
            "directions": "Upstairs and signposted after the first sign if you use the escalator. ",
            "comment": "You don't have to be a paying customer, both disabled and non-disabled toilets are gender neutral and free to use. ",
            "latitude": 51.5130481,
            "longitude": -0.1244579,
            "country": "GB",
            "changing_table": false,
            "distance": 0.3511445965589617,
            "bearing": "296.5661312319"
          },
          {
            "id": 61700,
            "name": "Five Guys",
            "street": "Northumberland Ave",
            "city": "London",
            "state": "London",
            "accessible": true,
            "unisex": true,
            "directions": "",
            "comment": "",
            "latitude": 51.5069825,
            "longitude": -0.1249472,
            "country": "GB",
            "changing_table": false,
            "distance": 0.35576896110669093,
            "bearing": "247.194039084843"
          },
          {
            "id": 60388,
            "name": "The Theatre Cafe",
            "street": "99 St Martins Lane",
            "city": "London ",
            "state": "England",
            "accessible": false,
            "unisex": true,
            "directions": "",
            "comment": "",
            "latitude": 51.5104859,
            "longitude": -0.1271282,
            "country": "GB",
            "changing_table": false,
            "distance": 0.3909356752219005,
            "bearing": "273.930758480773"
          },
          {
            "id": 47226,
            "name": "Starbucks Coffee",
            "street": "99 St Martin’s Lane",
            "city": "London",
            "state": "England",
            "accessible": true,
            "unisex": false,
            "directions": "At the back of the shop",
            "comment": "",
            "latitude": 51.5104859,
            "longitude": -0.1271282,
            "country": "GB",
            "changing_table": false,
            "distance": 0.3909356752219005,
            "bearing": "273.930758480773"
          },
          {
            "id": 32033,
            "name": "Starbucks",
            "street": "99 St Martins Lane",
            "city": "Covent Garden",
            "state": "London",
            "accessible": true,
            "unisex": true,
            "directions": "Past the counter to the seating area in the back.",
            "comment": "You can say you just need to pop to the loo and then you'll be back to order something. When you come back out you can just tell them you've changed your mind.",
            "latitude": 51.5104859,
            "longitude": -0.1271282,
            "country": "GB",
            "changing_table": false,
            "distance": 0.3909356752219005,
            "bearing": "273.930758480773"
          },
          {
            "id": 32034,
            "name": "Starbucks",
            "street": "99 St Martins Lane",
            "city": "Covent Garden",
            "state": "London",
            "accessible": true,
            "unisex": true,
            "directions": "Past the counter to the seating area in the back.",
            "comment": "You can say you just need to pop to the loo and then you'll be back to order something. When you come back out you can just tell them you've changed your mind.",
            "latitude": 51.5104859,
            "longitude": -0.1271282,
            "country": "GB",
            "changing_table": false,
            "distance": 0.3909356752219005,
            "bearing": "273.930758480773"
          },
          {
            "id": 33304,
            "name": "Waterloo tap",
            "street": "Sutton walk",
            "city": "Lambeth",
            "state": "London",
            "accessible": false,
            "unisex": true,
            "directions": "",
            "comment": "",
            "latitude": 51.5044547,
            "longitude": -0.1149105,
            "country": "GB",
            "changing_table": false,
            "distance": 0.3980675859015985,
            "bearing": "149.542554855148"
          },
          {
            "id": 36445,
            "name": "Costa Coffee",
            "street": "39 Shelton St",
            "city": "London",
            "state": "England",
            "accessible": true,
            "unisex": true,
            "directions": "At the back on the left (there's a sign on the wall).",
            "comment": "Two unisex stalls, one accessible.",
            "latitude": 51.5141174,
            "longitude": -0.1247223,
            "country": "GB",
            "changing_table": false,
            "distance": 0.40940262380999953,
            "bearing": "302.674432270936"
          },
          {
            "id": 27216,
            "name": "caffe nero",
            "street": "Oxo Tower Wharf Barge House Street, South Bank, London SE1 9BH",
            "city": "london",
            "state": "london",
            "accessible": true,
            "unisex": true,
            "directions": "To the left when entering caffe nero from the riverside",
            "comment": "Single restroom, paying customers only.",
            "latitude": 51.5083466,
            "longitude": -0.1082782,
            "country": "GB",
            "changing_table": false,
            "distance": 0.4348675134998419,
            "bearing": "98.795116408269"
          },
          {
            "id": 34224,
            "name": "Gaby's deli",
            "street": "30 Charing cross road ",
            "city": "London's ",
            "state": "England",
            "accessible": false,
            "unisex": false,
            "directions": "",
            "comment": "Paying customers only, gendered but single stall.",
            "latitude": 51.5109089,
            "longitude": -0.1281477,
            "country": "GB",
            "changing_table": false,
            "distance": 0.4383873049272772,
            "bearing": "275.926746439773"
          },
          {
            "id": 25941,
            "name": "National Portrait Gallery ",
            "street": "Charing Cross Road",
            "city": "London",
            "state": "UK",
            "accessible": true,
            "unisex": true,
            "directions": "In the basement, stairs and lift accessible. Not far from the entrance",
            "comment": "Good and clean",
            "latitude": 51.5099239,
            "longitude": -0.1284311,
            "country": "GB",
            "changing_table": false,
            "distance": 0.4446233631614512,
            "bearing": "270.32640027838"
          },
          {
            "id": 67357,
            "name": "Heathrow Airport Terminal 5",
            "street": "Wellington Road ",
            "city": "London",
            "state": "TW6 2GA",
            "accessible": true,
            "unisex": true,
            "directions": "Arrivals, Level 0, Landside South Accessible Toilet. ",
            "comment": "Marked as “accessible” and “not all disabilities are visible”. Doesn’t require a Radar key to access. ",
            "latitude": 51.5072178,
            "longitude": -0.1275862,
            "country": "GB",
            "changing_table": false,
            "distance": 0.44738109555426114,
            "bearing": "254.420314519717"
          }] 
    }
    } 